{
  "type": "FeatureCollection",
  "features": [{
    "type" : "Feature",
    "geometry" : {
      "type" : "Point",
      "coordinates" : [4.935572, 52.309485]
    },
    "properties" : {
      "name" : ["Datacenter.com AMS1"],
      "address" : {
        "street" : "Keienbergweg 22",
        "zipcode" : "1011 GB",
        "city" : "Amsterdam"
      },
      "owner" : ["Datacenter"],
      "amsix" : false,
      "photo_taken" : false,
      "source" : "datacentermap.com"
    }
  },{
    "type" : "Feature",
    "geometry" : {
      "type" : "Point",
      "coordinates" : [4.93948, 52.303912]
    },
    "properties" : {
      "name" : ["NAP of Amsterdam"],
      "address" : {
        "street" : "Cateringweg 5",
        "zipcode" :  "1118 AM",
        "city" :  "Schiphol"
      },
      "owner" : ["Digital Realty", "Terremark"],
      "amsix" : false,
      "photo_taken" : true,
      "source" : "datacentermap.com"
    }
  },{
    "type" : "Feature",
    "geometry" : {
      "type" : "Point",
      "coordinates" : [4.93948, 52.303912]
    },
    "properties" : {
      "name" : ["Switch Datacenters Amsterdam"],
      "address" : {
        "street" : "Lemelerbergweg 28",
        "zipcode" :  "1101 AH",
        "city" :  "Amsterdam"
      },
      "owner" : ["Switch Datacenters"],
      "amsix" : false,
      "photo_taken" : false,
      "source" : "datacentermap.com"
    }
  },{
    "type" : "Feature",
    "geometry" : {
      "type" : "Point",
      "coordinates" : [4.842347, 52.399869]
    },
    "properties" : {
      "name" : ["Switch Datacenters Amsterdam 3"],
      "address" : {
        "street" : "Lemelerbergweg 28",
        "zipcode" :  "1101 AH",
        "city" :  "Amsterdam"
      },
      "owner" : ["Switch Datacenters"],
      "amsix" : false,
      "photo_taken" : false,
      "source" : "datacentermap.com"
    }
  },{
    "type" : "Feature",
    "geometry" : {
      "type" : "Point",
      "coordinates" : [4.843834, 52.399474]
    },
    "properties" : {
      "name" : ["Interxion AMS1"],
      "address" : {
        "street" : "Gyroscoopweg 58",
        "zipcode" :  "1042 AC",
        "city" :  "Amsterdam"
      },
      "owner" : ["Interxion"],
      "amsix" : false,
      "photo_taken" : false,
      "source" : "datacentermap.com"
    }
  },{
    "type" : "Feature",
    "geometry" : {
      "type" : "Point",
      "coordinates" : [4.842597, 52.399861]
    },
    "properties" : {
      "name" : ["Interxion AMS2"],
      "address" : {
        "street" : "Gyroscoopweg 72",
        "zipcode" :  "1042 AC",
        "city" :  "Amsterdam"
      },
      "owner" : ["Interxion"],
      "amsix" : false,
      "photo_taken" : false,
      "source" : "datacentermap.com"
    }
  },{
    "type" : "Feature",
    "geometry" : {
      "type" : "Point",
      "coordinates" : [4.943121, 52.299929]
    },
    "properties" : {
      "name" : ["Interxion AMS4"],
      "address" : {
        "street" : "Gyroscoopweg 60",
        "zipcode" :  "1042 AC",
        "city" :  "Amsterdam"
      },
      "owner" : ["Interxion"],
      "amsix" : false,
      "photo_taken" : false,
      "source" : "datacentermap.com"
    }
  },{
    "type" : "Feature",
    "geometry" : {
      "type" : "Point",
      "coordinates" : [4.943121, 52.299929]
    },
    "properties" : {
      "name" : ["Digital Realty Data Center"],
      "address" : {
        "street" : "Paul Van Vlissingenstraat 16",
        "zipcode" :  "1096 BK",
        "city" :  "Amsterdam"
      },
      "owner" : ["Digital Realty"],
      "amsix" : false,
      "photo_taken" : true,
      "source" : "datacentermap.com"
    }
  },{
    "type" : "Feature",
    "geometry" : {
      "type" : "Point",
      "coordinates" : [4.945054, 52.293351]
    },
    "properties" : {
      "name" : ["Matrix 4"],
      "address" : {
        "street" : "Science Park 404",
        "zipcode" :  "10 98",
        "city" :  "Amsterdam"
      },
      "owner" : ["IPTP Networks"],
      "amsix" : false,
      "photo_taken" : false,
      "source" : "datacentermap.com"
    }
  },{
    "type" : "Feature",
    "geometry" : {
      "type" : "Point",
      "coordinates" : [4.838742, 52.39676]
    },
    "properties" : {
      "name" : ["AM1 Amsterdam IBX® Data Center"],
      "address" : {
        "street" : "Luttenbergweg 4",
        "zipcode" :  "1101 EC",
        "city" :  "Amsterdam"
      },
      "owner" : ["Equinix"],
      "amsix" : false,
      "photo_taken" : true,
      "source" : "datacentermap.com"
    }
  },{
    "type" : "Feature",
    "geometry" : {
      "type" : "Point",
      "coordinates" : [4.955048, 52.300183]
    },
    "properties" : {
      "name" : ["AM2 Amsterdam IBX® Data Center"],
      "address" : {
        "street" : "Luttenbergweg 4",
        "zipcode" :  "1101 EC",
        "city" :  "Amsterdam"
      },
      "owner" : ["Equinix"],
      "amsix" : false,
      "photo_taken" : false,
      "source" : "datacentermap.com"
    }
  },{
    "type" : "Feature",
    "geometry" : {
      "type" : "Point",
      "coordinates" : [4.886678, 52.336277]
    },
    "properties" : {
      "name" : ["AM3 Amsterdam IBX® Data Center"],
      "address" : {
        "street" : "Science Park 610",
        "zipcode" :  "1098 XH",
        "city" :  "Amsterdam"
      },
      "owner" : ["Equinix"],
      "amsix" : false,
      "photo_taken" : false,
      "source" : "datacentermap.com"
    }
  },{
    "type" : "Feature",
    "geometry" : {
      "type" : "Point",
      "coordinates" : [4.844303, 52.34339]
    },
    "properties" : {
      "name" : ["AM4 Amsterdam IBX® Data Center"],
      "address" : {
        "street" : "Science Park 610",
        "zipcode" :  "1098 XH",
        "city" :  "Amsterdam"
      },
      "owner" : ["Equinix"],
      "amsix" : false,
      "photo_taken" : true,
      "source" : "datacentermap.com"
    }
  },{
    "type" : "Feature",
    "geometry" : {
      "type" : "Point",
      "coordinates" : [4.93186, 52.33476]
    },
    "properties" : {
      "name" : ["AM5 Amsterdam IBX® Data Center"],
      "address" : {
        "street" : "Schepenbergweg 42",
        "zipcode" :  "1105 AT",
        "city" :  "Amsterdam"
      },
      "owner" : ["Equinix"],
      "amsix" : false,
      "photo_taken" : true,
      "source" : "datacentermap.com"
    }
  },{
    "type" : "Feature",
    "geometry" : {
      "type" : "Point",
      "coordinates" : [4.851132, 52.396443]
    },
    "properties" : {
      "name" : ["AM6 Amsterdam IBX® Data Center"],
      "address" : {
        "street" : "Duivendrechtsekade 80A",
        "zipcode" :  "1096 AH",
        "city" :  "Amsterdam"
      },
      "owner" : ["Equinix"],
      "amsix" : false,
      "photo_taken" : true,
      "source" : "datacentermap.com"
    }
  },{
    "type" : "Feature",
    "geometry" : {
      "type" : "Point",
      "coordinates" : [4.832253, 52.385756]
    },
    "properties" : {
      "name" : ["AM7 Amsterdam IBX® Data Center"],
      "address" : {
        "street" : "Kuiperbergweg 13",
        "zipcode" :  "1101 AE",
        "city" :  "Amsterdam"
      },
      "owner" : ["Equinix"],
      "amsix" : false,
      "photo_taken" : true,
      "source" : "datacentermap.com"
    }
  },{
    "type" : "Feature",
    "geometry" : {
      "type" : "Point",
      "coordinates" : [4.870918, 52.395902]
    },
    "properties" : {
      "name" : ["AM8 Amsterdam IBX® Data Center"],
      "address" : {
        "street" : "Gyroscoopweg 2E-F",
        "zipcode" :  "1042 AM",
        "city" :  "Amsterdam"
      },
      "owner" : ["Equinix"],
      "amsix" : false,
      "photo_taken" : true,
      "source" : "datacentermap.com"
    }
  },{
    "type" : "Feature",
    "geometry" : {
      "type" : "Point",
      "coordinates" : [4.849488, 52.395778]
    },
    "properties" : {
      "name" : ["The Datacenter Group"],
      "address" : {
        "street" : "Kabelweg 48a",
        "zipcode" :  "1014 BB",
        "city" :  "Amsterdam"
      },
      "owner" : ["The Datacenter Group"],
      "amsix" : false,
      "photo_taken" : true,
      "source" : "datacentermap.com"
    }
  },{
    "type" : "Feature",
    "geometry" : {
      "type" : "Point",
      "coordinates" : [4.951214, 52.35396]
    },
    "properties" : {
      "name" : ["Vancis B.V."],
      "address" : {
        "street" : "Science Park 121",
        "zipcode" :  "1098 XH",
        "city" :  "Amsterdam"
      },
      "owner" : ["Vancis B.V."],
      "amsix" : false,
      "photo_taken" : false,
      "source" : "datacentermap.com"
    }
  },{
    "type" : "Feature",
    "geometry" : {
      "type" : "Point",
      "coordinates" : [4.951214, 52.35396]
    },
    "properties" : {
      "name" : ["KPN Datacenter Amsterdam"],
      "address" : {
        "street" : "Paalbergweg 1-3",
        "zipcode" :  "1105 AG",
        "city" :  "Amsterdam"
      },
      "owner" : ["Koninklijke KPN N.V"],
      "amsix" : false,
      "photo_taken" : true,
      "source" : "datacentermap.com"
    }
  },{
    "type" : "Feature",
    "geometry" : {
      "type" : "Point",
      "coordinates" : [6.878966, 52.207393]
    },
    "properties" : {
      "name" : ["Alticom Amsterdam", "Cellnex Amsterdam"],
      "address" : {
        "street" : "Barbara Strozzilaan 251",
        "zipcode" :  "1083 HN",
        "city" :  "Amsterdam"
      },
      "owner" : ["Alticom", "Cellnex Telecom"],
      "amsix" : false,
      "photo_taken" : true,
      "source" : "datacentermap.com"
    }
  },{
    "type" : "Feature",
    "geometry" : {
      "type" : "Point",
      "coordinates" : [4.951214, 52.35396]
    },
    "properties" : {
      "name" : ["Colt Amsterdam, Oud-Zuid"],
      "address" : {
        "street" : "",
        "zipcode" :  "1059 CA",
        "city" :  "Amsterdam"
      },
      "owner" : ["Colt Technology Services"],
      "amsix" : false,
      "photo_taken" : false,
      "source" : "datacentermap.com"
    }
  },{
    "type" : "Feature",
    "geometry" : {
      "type" : "Point",
      "coordinates" : [4.802151, 52.322569]
    },
    "properties" : {
      "name" : ["Level 3 Amsterdam"],
      "address" : {
        "street" : "Joop Geesinkweg 401-404",
        "zipcode" :  "1096 AX",
        "city" :  "Amsterdam"
      },
      "owner" : ["Level 3"],
      "amsix" : false,
      "photo_taken" : false,
      "source" : "datacentermap.com"
    }
  },{
    "type" : "Feature",
    "geometry" : {
      "type" : "Point",
      "coordinates" : [4.919441, 52.333408]
    },
    "properties" : {
      "name" : ["Level 3 Amsterdam"],
      "address" : {
        "street" : "Stekkenbergweg 4",
        "zipcode" :  "1105 AJ",
        "city" :  "Amsterdam"
      },
      "owner" : ["Level 3"],
      "amsix" : false,
      "photo_taken" : false,
      "source" : "datacentermap.com"
    }
  },{
    "type" : "Feature",
    "geometry" : {
      "type" : "Point",
      "coordinates" : [4.958019, 52.356626]
    },
    "properties" : {
      "name" : ["TelecityGroup Amstel Business Park"],
      "address" : {
        "street" : "H.J.E. Wenckebachweg 127",
        "zipcode" :  "1096 AM",
        "city" :  "Amsterdam"
      },
      "owner" : ["Digital Realty"],
      "amsix" : false,
      "photo_taken" : false,
      "source" : "datacentermap.com"
    }
  },{
    "type" : "Feature",
    "geometry" : {
      "type" : "Point",
      "coordinates" : [4.96096, 52.354925]
    },
    "properties" : {
      "name" : ["Amsterdam Data Tower"],
      "address" : {
        "street" : "Science Park 120",
        "zipcode" :  "1098 XG",
        "city" :  "Amsterdam"
      },
      "owner" : ["Digital Realty"],
      "amsix" : false,
      "photo_taken" : true,
      "source" : "datacentermap.com"
    }
  },{
    "type" : "Feature",
    "geometry" : {
      "type" : "Point",
      "coordinates" : [4.94859, 52.29643]
    },
    "properties" : {
      "name" : ["GYRO Center Amsterdam"],
      "address" : {
        "street" : "Gyroscoopweg 134-140",
        "zipcode" :  "1042 AZ",
        "city" :  "Amsterdam"
      },
      "owner" : ["GYRO Center"],
      "amsix" : false,
      "photo_taken" : false,
      "source" : "datacentermap.com"
    }
  },{
    "type" : "Feature",
    "geometry" : {
      "type" : "Point",
      "coordinates" : [4.788323, 52.292431]
    },
    "properties" : {
      "name" : ["Colt"],
      "address" : {
        "street" : "Van der Madeweg 12-14a",
        "zipcode" :  "1099 BT",
        "city" :  "Amsterdam"
      },
      "owner" : ["Colt Technology Services"],
      "amsix" : false,
      "photo_taken" : false,
      "source" : "datacentermap.com"
    }
  },{
    "type" : "Feature",
    "geometry" : {
      "type" : "Point",
      "coordinates" : [4.96096, 52.354925]
    },
    "properties" : {
      "name" : ["Databarn Amsterdam B.V."],
      "address" : {
        "street" : "Zekeringstraat 35",
        "zipcode" :  "1014 BV",
        "city" :  "Amsterdam"
      },
      "owner" : ["Databarn Amsterdam B.V."],
      "amsix" : false,
      "photo_taken" : false,
      "source" : "datacentermap.com"
    }
  },{
    "type" : "Feature",
    "geometry" : {
      "type" : "Point",
      "coordinates" : [4.93365, 52.337296]
    },
    "properties" : {
      "name" : ["Global One"],
      "address" : {
        "street" : "Heathrowstraat 10",
        "zipcode" :  "1043 CH",
        "city" :  "Amsterdam"
      },
      "owner" : ["Global One"],
      "amsix" : false,
      "photo_taken" : false,
      "source" : "datacentermap.com"
    }
  },{
    "type" : "Feature",
    "geometry" : {
      "type" : "Point",
      "coordinates" : [4.938009, 52.303078]
    },
    "properties" : {
      "name" : ["Global Switch"],
      "address" : {
        "street" : "Johan Huizingalaan 759",
        "zipcode" :  "1066 VH",
        "city" :  "Amsterdam"
      },
      "owner" : ["Global Switch"],
      "amsix" : false,
      "photo_taken" : false,
      "source" : "datacentermap.com"
    }
  },{
    "type" : "Feature",
    "geometry" : {
      "type" : "Point",
      "coordinates" : [4.849214, 52.392897]
    },
    "properties" : {
      "name" : ["Eweka DC"],
      "address" : {
        "street" : "Westhavenweg 60B",
        "zipcode" :  "1042 AL",
        "city" :  "Amsterdam"
      },
      "owner" : ["Eweka DC"],
      "amsix" : false,
      "photo_taken" : false,
      "source" : "datacentermap.com"
    }
  },{
    "type" : "Feature",
    "geometry" : {
      "type" : "Point",
      "coordinates" : [4.952501, 52.356671]
    },
    "properties" : {
      "name" : ["DCA"],
      "address" : {
        "street" : "Archangelkade 1/3",
        "zipcode" :  "1013 BE",
        "city" :  "Amsterdam"
      },
      "owner" : ["DCA"],
      "amsix" : false,
      "photo_taken" : false,
      "source" : "datacentermap.com"
    }
  },{
    "type" : "Feature",
    "geometry" : {
      "type" : "Point",
      "coordinates" : [4.931893, 52.336524]
    },
    "properties" : {
      "name" : ["IS Group"],
      "address" : {
        "street" : "Zekeringstraat 43",
        "zipcode" :  "1014 BV",
        "city" :  "Amsterdam"
      },
      "owner" : ["KPN"],
      "amsix" : false,
      "photo_taken" : false,
      "source" : "datacentermap.com"
    }
  },{
    "type" : "Feature",
    "geometry" : {
      "type" : "Point",
      "coordinates" : [4.950882, 52.357161]
    },
    "properties" : {
      "name" : ["Nikhef"],
      "address" : {
        "street" : "Kruislaan 409",
        "zipcode" :  "1098 SL",
        "city" :  "Amsterdam"
      },
      "owner" : ["Nikhef"],
      "amsix" : false,
      "photo_taken" : false,
      "source" : "datacentermap.com"
    }
  },{
    "type" : "Feature",
    "geometry" : {
      "type" : "Point",
      "coordinates" : [4.926198, 52.328278]
    },
    "properties" : {
      "name" : ["RDC Datacentrum"],
      "address" : {
        "street" : "De Klencke 10-12",
        "zipcode" :  "1083 HL",
        "city" :  "Amsterdam"
      },
      "owner" : ["RDC"],
      "amsix" : false,
      "photo_taken" : false,
      "source" : "datacentermap.com"
    }
  },{
    "type" : "Feature",
    "geometry" : {
      "type" : "Point",
      "coordinates" : [4.828712, 52.343984]
    },
    "properties" : {
      "name" : ["SARA Amsterdam"],
      "address" : {
        "street" : "Kruislaan 415",
        "zipcode" :  "1098 SL",
        "city" :  "Amsterdam"
      },
      "owner" : ["SURF U.A."],
      "amsix" : false,
      "photo_taken" : false,
      "source" : "datacentermap.com"
    }
  },{
    "type" : "Feature",
    "geometry" : {
      "type" : "Point",
      "coordinates" : [4.828869, 52.408398]
    },
    "properties" : {
      "name" : ["Vancis"],
      "address" : {
        "street" : "Science Park 140",
        "zipcode" :  "1098 XG",
        "city" :  "Amsterdam"
      },
      "owner" : ["Vancis"],
      "amsix" : false,
      "photo_taken" : false,
      "source" : "datacentermap.com"
    }
  },{
    "type" : "Feature",
    "geometry" : {
      "type" : "Point",
      "coordinates" : [4.885484, 52.333972]
    },
    "properties" : {
      "name" : ["Verizon 1"],
      "address" : {
        "street" : "Joan Muyskenweg 24",
        "zipcode" :  "1096 CJ",
        "city" :  "Amsterdam"
      },
      "owner" : ["Verizon"],
      "amsix" : false,
      "photo_taken" : false,
      "source" : "datacentermap.com"
    }
  },{
    "type" : "Feature",
    "geometry" : {
      "type" : "Point",
      "coordinates" : [4.954253, 52.356921]
    },
    "properties" : {
      "name" : ["Verizon 2"],
      "address" : {
        "street" : "Kollenbergweg 13",
        "zipcode" :  "1101 AR",
        "city" :  "Amsterdam"
      },
      "owner" : ["Verizon"],
      "amsix" : false,
      "photo_taken" : false,
      "source" : "datacentermap.com"
    }
  },{
    "type" : "Feature",
    "geometry" : {
      "type" : "Point",
      "coordinates" : [4.913962, 52.332571]
    },
    "properties" : {
      "name" : ["XS4ALL DC2"],
      "address" : {
        "street" : "Drentestraat 12",
        "zipcode" :  "1083 HK",
        "city" :  "Amsterdam"
      },
      "owner" : ["XS4ALL"],
      "amsix" : false,
      "photo_taken" : false,
      "source" : "datacentermap.com"
    }
  },{
    "type" : "Feature",
    "geometry" : {
      "type" : "Point",
      "coordinates" : [4.935663, 52.30491]
    },
    "properties" : {
      "name" : ["TelecityGroup Amsterdam"],
      "address" : {
        "street" : "Kruislaan 411",
        "zipcode" :  "1098 SJ",
        "city" :  "Amsterdam"
      },
      "owner" : ["Equinix"],
      "amsix" : false,
      "photo_taken" : false,
      "source" : "datacentermap.com"
    }
  },{
    "type" : "Feature",
    "geometry" : {
      "type" : "Point",
      "coordinates" : [4.956934, 52.35672]
    },
    "properties" : {
      "name" : ["Vancis Amsterdam"],
      "address" : {
        "street" : "Gebouw Matrix III Science Park 402",
        "zipcode" :  "1098 XH",
        "city" :  "Amsterdam"
      },
      "owner" : ["Vancis"],
      "amsix" : false,
      "photo_taken" : false,
      "source" : "datacentermap.com"
    }
  },{
    "type" : "Feature",
    "geometry" : {
      "type" : "Point",
      "coordinates" : [4.842911, 52.400496]
    },
    "properties" : {
      "name" : ["Interoute Amsterdam"],
      "address" : {
        "street" : "Koolhovenlaan 120 1119NR",
        "zipcode" :  "Schiph ol",
        "city" :  "Rijk"
      },
      "owner" : ["Interoute Communications Ltd"],
      "amsix" : false,
      "photo_taken" : false,
      "source" : "datacentermap.com"
    }
  },{
    "type" : "Feature",
    "geometry" : {
      "type" : "Point",
      "coordinates" : [4.755958, 52.27956]
    },
    "properties" : {
      "name" : ["Interxion AMS3"],
      "address" : {
        "street" : "Cessnalaan 1-33 1119NJ",
        "zipcode" :  "Schiph ol",
        "city" :  "Rijk"
      },
      "owner" : ["Interxion"],
      "amsix" : false,
      "photo_taken" : false,
      "source" : "datacentermap.com"
    }
  },{
    "type" : "Feature",
    "geometry" : {
      "type" : "Point",
      "coordinates" : [6.118069, 52.786894]
    },
    "properties" : {
      "name" : ["Interxion AMS5"],
      "address" : {
        "street" : "Tupolevlaan 101 1119PA",
        "zipcode" :  "Schiph ol",
        "city" :  "Rijk"
      },
      "owner" : ["Interxion"],
      "amsix" : false,
      "photo_taken" : false,
      "source" : "datacentermap.com"
    }
  },{
    "type" : "Feature",
    "geometry" : {
      "type" : "Point",
      "coordinates" : [4.770855, 52.28415]
    },
    "properties" : {
      "name" : ["Interxion AMS6"],
      "address" : {
        "street" : "1119PA",
        "zipcode" :  "Schiph ol",
        "city" :  "Rijk"
      },
      "owner" : ["Interxion"],
      "amsix" : false,
      "photo_taken" : false,
      "source" : "datacentermap.com"
    }
  },{
    "type" : "Feature",
    "geometry" : {
      "type" : "Point",
      "coordinates" : [4.753851, 52.280312]
    },
    "properties" : {
      "name" : ["Interxion AMS7"],
      "address" : {
        "street" : "Cessnalaan 50 1119NJ",
        "zipcode" :  "Schiph ol",
        "city" :  "Rijk"
      },
      "owner" : ["Interxion"],
      "amsix" : false,
      "photo_taken" : false,
      "source" : "datacentermap.com"
    }
  },{
    "type" : "Feature",
    "geometry" : {
      "type" : "Point",
      "coordinates" : [4.753675, 52.280356]
    },
    "properties" : {
      "name" : ["Maincubes AMS01 Schiphol"],
      "address" : {
        "street" : "Capronilaan 2 1119NR",
        "zipcode" :  "Schiph ol",
        "city" :  "Rijk"
      },
      "owner" : ["Maincubes B.V."],
      "amsix" : false,
      "photo_taken" : false,
      "source" : "datacentermap.com"
    }
  },{
    "type" : "Feature",
    "geometry" : {
      "type" : "Point",
      "coordinates" : [4.765043, 52.281252]
    },
    "properties" : {
      "name" : ["atom86"],
      "address" : {
        "street" : "Boeing Avenue 271 1119PD",
        "zipcode" :  "Schiph ol",
        "city" :  "Rijk"
      },
      "owner" : ["atom86"],
      "amsix" : false,
      "photo_taken" : false,
      "source" : "datacentermap.com"
    }
  },{
    "type" : "Feature",
    "geometry" : {
      "type" : "Point",
      "coordinates" : [4.772861, 52.282192]
    },
    "properties" : {
      "name" : ["Cogent Datacenter Halfweg"],
      "address" : {
        "street" : "Haarlemmerstraatweg 135",
        "zipcode" :  "1165 MK",
        "city" :  "Halfweg"
      },
      "owner" : ["Cogent Communications, Inc."],
      "amsix" : false,
      "photo_taken" : false,
      "source" : "datacentermap.com"
    }
  },{
    "type" : "Feature",
    "geometry" : {
      "type" : "Point",
      "coordinates" : [4.750866, 52.274896]
    },
    "properties" : {
      "name" : ["NLDC Datacenter Amsterdam 2 "],
      "address" : {
        "street" : "Lakenblekerstraat 13",
        "zipcode" :  "1431 GE",
        "city" :  "Aalsmeer"
      },
      "owner" : ["NLDC"],
      "amsix" : false,
      "photo_taken" : false,
      "source" : "datacentermap.com"
    }
  },{
    "type" : "Feature",
    "geometry" : {
      "type" : "Point",
      "coordinates" : [4.717155, 52.384505]
    },
    "properties" : {
      "name" : ["Datahouse Datacenters"],
      "address" : {
        "street" : "Professor van der Waalsstraat",
        "zipcode" :  "1821 BT",
        "city" :  "Alkmaar"
      },
      "owner" : ["Datahouse Datacenters"],
      "amsix" : false,
      "photo_taken" : false,
      "source" : "datacentermap.com"
    }
  },{
    "type" : "Feature",
    "geometry" : {
      "type" : "Point",
      "coordinates" : [4.773709, 52.259264]
    },
    "properties" : {
      "name" : ["Signet"],
      "address" : {
        "street" : "Science Park Eindhoven 5218",
        "zipcode" :  "5692 EG",
        "city" :  "Son"
      },
      "owner" : ["Signet"],
      "amsix" : false,
      "photo_taken" : false,
      "source" : "datacentermap.com"
    }
  },{
    "type" : "Feature",
    "geometry" : {
      "type" : "Point",
      "coordinates" : [4.76981, 52.625046]
    },
    "properties" : {
      "name" : ["TeDoc Web Management"],
      "address" : {
        "street" : "Kerkstraat 26",
        "zipcode" :  "8471 CD",
        "city" :  "Wolvega"
      },
      "owner" : ["TeDoc Web Management"],
      "amsix" : false,
      "photo_taken" : false,
      "source" : "datacentermap.com"
    }
  },{
    "type" : "Feature",
    "geometry" : {
      "type" : "Point",
      "coordinates" : [5.460506, 51.501266]
    },
    "properties" : {
      "name" : ["Zeelandnet"],
      "address" : {
        "street" : "Het Rip 9",
        "zipcode" :  "4493 RL",
        "city" :  "Kamperland"
      },
      "owner" : ["Zeelandnet"],
      "amsix" : false,
      "photo_taken" : false,
      "source" : "datacentermap.com"
    }
  },{
    "type" : "Feature",
    "geometry" : {
      "type" : "Point",
      "coordinates" : [5.997082, 52.876458]
    },
    "properties" : {
      "name" : ["KPN Datacenter Flevoland", "NLDC Datacenter Amsterdam 3"],
      "address" : {
        "street" : "Rondebeltweg 62",
        "zipcode" :  "1329 BG",
        "city" :  "Almere"
      },
      "owner" : ["Koninklijke KPN N.V", "NLDC"],
      "amsix" : false,
      "photo_taken" : true,
      "source" : "datacentermap.com"
    }
  },{
    "type" : "Feature",
    "geometry" : {
      "type" : "Point",
      "coordinates" : [3.700106, 51.574114]
    },
    "properties" : {
      "name" : ["Vancis Almere"],
      "address" : {
        "street" : "Randstad 22 153",
        "zipcode" :  "1316 BM",
        "city" :  "Almere"
      },
      "owner" : ["Vancis"],
      "amsix" : false,
      "photo_taken" : false,
      "source" : "datacentermap.com"
    }
  },{
    "type" : "Feature",
    "geometry" : {
      "type" : "Point",
      "coordinates" : [5.268793, 52.364353]
    },
    "properties" : {
      "name" : ["Final Frontier"],
      "address" : {
        "street" : "Cypergrasweg 3C",
        "zipcode" :  "1313 AK",
        "city" :  "Almere"
      },
      "owner" : ["Final Frontier"],
      "amsix" : false,
      "photo_taken" : false,
      "source" : "datacentermap.com"
    }
  },{
    "type" : "Feature",
    "geometry" : {
      "type" : "Point",
      "coordinates" : [5.229227, 52.378152]
    },
    "properties" : {
      "name" : ["Mihos BV"],
      "address" : {
        "street" : "Striptekenaar 76",
        "zipcode" :  "1336 CM",
        "city" :  "Almere"
      },
      "owner" : ["Mihos BV"],
      "amsix" : false,
      "photo_taken" : false,
      "source" : "datacentermap.com"
    }
  },{
    "type" : "Feature",
    "geometry" : {
      "type" : "Point",
      "coordinates" : [5.204234, 52.38546]
    },
    "properties" : {
      "name" : ["UNET Almere"],
      "address" : {
        "street" : "Transistorstraat 7c",
        "zipcode" :  "1322 CJ",
        "city" :  "Almere"
      },
      "owner" : ["UNET Almere"],
      "amsix" : false,
      "photo_taken" : false,
      "source" : "datacentermap.com"
    }
  },{
    "type" : "Feature",
    "geometry" : {
      "type" : "Point",
      "coordinates" : [5.321596, 52.40744]
    },
    "properties" : {
      "name" : ["KPN Datacenter Apeldoorn"],
      "address" : {
        "street" : "Fauststraat 1",
        "zipcode" :  "7323 BA",
        "city" :  "Apeldoorn"
      },
      "owner" : ["Koninklijke KPN N.V"],
      "amsix" : false,
      "photo_taken" : false,
      "source" : "datacentermap.com"
    }
  },{
    "type" : "Feature",
    "geometry" : {
      "type" : "Point",
      "coordinates" : [5.182618, 52.346588]
    },
    "properties" : {
      "name" : ["Computel Datacenter Gelderland"],
      "address" : {
        "street" : "Schumanpark 29-31",
        "zipcode" :  "7336 AM",
        "city" :  "Apeldoorn"
      },
      "owner" : ["Computel"],
      "amsix" : false,
      "photo_taken" : false,
      "source" : "datacentermap.com"
    }
  },{
    "type" : "Feature",
    "geometry" : {
      "type" : "Point",
      "coordinates" : [5.976736, 52.232416]
    },
    "properties" : {
      "name" : ["ITB2 Datacenter Apeldoorn"],
      "address" : {
        "street" : "Grote Woudhuis 5",
        "zipcode" :  "7325 WM",
        "city" :  "Apeldoorn"
      },
      "owner" : ["ITB2"],
      "amsix" : false,
      "photo_taken" : false,
      "source" : "datacentermap.com"
    }
  },{
    "type" : "Feature",
    "geometry" : {
      "type" : "Point",
      "coordinates" : [5.943514, 52.194743]
    },
    "properties" : {
      "name" : ["Solcon Apeldoorn"],
      "address" : {
        "street" : "Laan van de Ram 39",
        "zipcode" :  "7324 BW",
        "city" :  "Apeldoorn"
      },
      "owner" : ["Solcon"],
      "amsix" : false,
      "photo_taken" : false,
      "source" : "datacentermap.com"
    }
  },{
    "type" : "Feature",
    "geometry" : {
      "type" : "Point",
      "coordinates" : [6.026183, 52.199554]
    },
    "properties" : {
      "name" : ["KPN Datacenter Eindhoven"],
      "address" : {
        "street" : "High Tech Campus 53",
        "zipcode" :  "5656 AG",
        "city" :  "Eindhoven"
      },
      "owner" : ["Koninklijke KPN N.V"],
      "amsix" : false,
      "photo_taken" : false,
      "source" : "datacentermap.com"
    }
  },{
    "type" : "Feature",
    "geometry" : {
      "type" : "Point",
      "coordinates" : [6.001603, 52.24703]
    },
    "properties" : {
      "name" : ["EcoRacks"],
      "address" : {
        "street" : "Ambachtsweg 25-27",
        "zipcode" :  "5627 BZ",
        "city" :  "Eindhoven"
      },
      "owner" : ["EcoRacks"],
      "amsix" : false,
      "photo_taken" : false,
      "source" : "datacentermap.com"
    }
  },{
    "type" : "Feature",
    "geometry" : {
      "type" : "Point",
      "coordinates" : [5.45911, 51.40762]
    },
    "properties" : {
      "name" : ["Interconnect Eindhoven"],
      "address" : {
        "street" : "Park Forum 1041",
        "zipcode" :  "5657 HJ",
        "city" :  "Eindhoven"
      },
      "owner" : ["Interconnect"],
      "amsix" : false,
      "photo_taken" : false,
      "source" : "datacentermap.com"
    }
  },{
    "type" : "Feature",
    "geometry" : {
      "type" : "Point",
      "coordinates" : [5.440275, 51.478509]
    },
    "properties" : {
      "name" : ["Alticom Haarlem"],
      "address" : {
        "street" : "A. Hofmanweg 1",
        "zipcode" :  "2031 BH",
        "city" :  "Haarlem"
      },
      "owner" : ["Alticom"],
      "amsix" : false,
      "photo_taken" : true,
      "source" : "datacentermap.com"
    }
  },{
    "type" : "Feature",
    "geometry" : {
      "type" : "Point",
      "coordinates" : [5.387441, 51.442134]
    },
    "properties" : {
      "name" : ["Alticom Datacenter Haarlem"],
      "address" : {
        "street" : "A. Hofmanweg 1",
        "zipcode" :  "2031 BH",
        "city" :  "Haarlem"
      },
      "owner" : ["Alticom", "Cellnex Telecom"],
      "amsix" : false,
      "photo_taken" : false,
      "source" : "datacentermap.com"
    }
  },{
    "type" : "Feature",
    "geometry" : {
      "type" : "Point",
      "coordinates" : [4.669602, 52.388166]
    },
    "properties" : {
      "name" : ["Iron Mountain AMS-1"],
      "address" : {
        "street" : "J.W. Lucasweg 35",
        "zipcode" :  "2031 BE",
        "city" :  "Haarlem"
      },
      "owner" : ["Iron Mountain"],
      "amsix" : false,
      "photo_taken" : true,
      "source" : "datacentermap.com"
    }
  },{
    "type" : "Feature",
    "geometry" : {
      "type" : "Point",
      "coordinates" : [4.669602, 52.388166]
    },
    "properties" : {
      "name" : ["KPN Datacenter Oude Meer"],
      "address" : {
        "street" : "Fokkerweg 300",
        "zipcode" :  "1438 AN",
        "city" :  "Oude Meer"
      },
      "owner" : ["Koninklijke KPN N.V"],
      "amsix" : false,
      "photo_taken" : false,
      "source" : "datacentermap.com"
    }
  },{
    "type" : "Feature",
    "geometry" : {
      "type" : "Point",
      "coordinates" : [4.665399, 52.391185]
    },
    "properties" : {
      "name" : ["KPN Datacenter Rotterdam"],
      "address" : {
        "street" : "Anthony Fokkerweg 40",
        "zipcode" :  "3088 GG",
        "city" :  "Rotterdam"
      },
      "owner" : ["Koninklijke KPN N.V"],
      "amsix" : false,
      "photo_taken" : false,
      "source" : "datacentermap.com"
    }
  },{
    "type" : "Feature",
    "geometry" : {
      "type" : "Point",
      "coordinates" : [4.449031, 51.875343]
    },
    "properties" : {
      "name" : ["Alticom Datacenter Rotterdam (Waalhaven)"],
      "address" : {
        "street" : "Anthony Fokkerweg 49",
        "zipcode" :  "3088 GG",
        "city" :  "Rotterdam"
      },
      "owner" : ["Alticom", "Cellnex Telecom"],
      "amsix" : false,
      "photo_taken" : true,
      "source" : "datacentermap.com"
    }
  },{
    "type" : "Feature",
    "geometry" : {
      "type" : "Point",
      "coordinates" : [4.449031, 51.875343]
    },
    "properties" : {
      "name" : ["SmartDC :  Dataport of Rotterdam"],
      "address" : {
        "street" : "Van Nelleweg 1",
        "zipcode" :  "3044 BC",
        "city" :  "Rotterdam"
      },
      "owner" : ["SmartDC"],
      "amsix" : false,
      "photo_taken" : false,
      "source" : "datacentermap.com"
    }
  },{
    "type" : "Feature",
    "geometry" : {
      "type" : "Point",
      "coordinates" : [4.43342, 51.92324]
    },
    "properties" : {
      "name" : ["Bytesnet Rotterdam"],
      "address" : {
        "street" : "Schuttevaerweg 48",
        "zipcode" :  "3044 BB",
        "city" :  "Rotterdam"
      },
      "owner" : ["Bytesnet"],
      "amsix" : false,
      "photo_taken" : false,
      "source" : "datacentermap.com"
    }
  },{
    "type" : "Feature",
    "geometry" : {
      "type" : "Point",
      "coordinates" : [4.414046, 51.930144]
    },
    "properties" : {
      "name" : ["Databarn Rivium B.V."],
      "address" : {
        "street" : "Rivium Boulevard 62",
        "zipcode" :  "2909 LK",
        "city" :  "Rotterdam"
      },
      "owner" : ["Databarn"],
      "amsix" : false,
      "photo_taken" : false,
      "source" : "datacentermap.com"
    }
  },{
    "type" : "Feature",
    "geometry" : {
      "type" : "Point",
      "coordinates" : [4.546727, 51.910353]
    },
    "properties" : {
      "name" : ["Easynet DC Rotterdam"],
      "address" : {
        "street" : "Westzeedijk 487",
        "zipcode" :  "3024 EL",
        "city" :  "Rotterdam"
      },
      "owner" : ["Easynet"],
      "amsix" : false,
      "photo_taken" : false,
      "source" : "datacentermap.com"
    }
  },{
    "type" : "Feature",
    "geometry" : {
      "type" : "Point",
      "coordinates" : [4.457454, 51.904835]
    },
    "properties" : {
      "name" : ["Intermax - DC Schiecentrale"],
      "address" : {
        "street" : "Weena Zuid 108",
        "zipcode" :  "3012 NC",
        "city" :  "Rotterdam"
      },
      "owner" : ["Intermax"],
      "amsix" : false,
      "photo_taken" : false,
      "source" : "datacentermap.com"
    }
  },{
    "type" : "Feature",
    "geometry" : {
      "type" : "Point",
      "coordinates" : [4.474568, 51.922887]
    },
    "properties" : {
      "name" : ["Intermax - DC Schouwburgplein"],
      "address" : {
        "street" : "Schouwburgplein 30-34",
        "zipcode" :  "3012 CL",
        "city" :  "Rotterdam"
      },
      "owner" : ["Intermax"],
      "amsix" : false,
      "photo_taken" : false,
      "source" : "datacentermap.com"
    }
  },{
    "type" : "Feature",
    "geometry" : {
      "type" : "Point",
      "coordinates" : [4.474623, 51.92025]
    },
    "properties" : {
      "name" : ["Verizon 3"],
      "address" : {
        "street" : "Koperstraat 6",
        "zipcode" :  "3067 GL",
        "city" :  "Rotterdam"
      },
      "owner" : ["Verizon"],
      "amsix" : false,
      "photo_taken" : false,
      "source" : "datacentermap.com"
    }
  },{
    "type" : "Feature",
    "geometry" : {
      "type" : "Point",
      "coordinates" : [4.55103, 51.949852]
    },
    "properties" : {
      "name" : ["i3D.net Datacenter"],
      "address" : {
        "street" : "Rivium 1e Straat 1",
        "zipcode" :  "2909 LE",
        "city" :  "Capelle aan den IJssel"
      },
      "owner" : ["i3D.net"],
      "amsix" : false,
      "photo_taken" : false,
      "source" : "datacentermap.com"
    }
  },{
    "type" : "Feature",
    "geometry" : {
      "type" : "Point",
      "coordinates" : [4.539411, 51.912672]
    },
    "properties" : {
      "name" : ["InterBox Internet"],
      "address" : {
        "street" : "Venkelbaan 58",
        "zipcode" :  "2908 KE",
        "city" :  "Capelle aan den IJssel"
      },
      "owner" : ["InterBox Internet"],
      "amsix" : false,
      "photo_taken" : false,
      "source" : "datacentermap.com"
    }
  },{
    "type" : "Feature",
    "geometry" : {
      "type" : "Point",
      "coordinates" : [4.584266, 51.962906]
    },
    "properties" : {
      "name" : ["The Datacenter Group"],
      "address" : {
        "street" : "Heertjeslaan 1",
        "zipcode" :  "2629 JG",
        "city" :  "Delft"
      },
      "owner" : ["The Datacenter Group"],
      "amsix" : false,
      "photo_taken" : true,
      "source" : "datacentermap.com"
    }
  },{
    "type" : "Feature",
    "geometry" : {
      "type" : "Point",
      "coordinates" : [4.377386, 51.987067]
    },
    "properties" : {
      "name" : ["Intersquare"],
      "address" : {
        "street" : "1e Lambertusstraat 26",
        "zipcode" :  "5921 JS",
        "city" :  "Venlo"
      },
      "owner" : ["Intersquare"],
      "amsix" : false,
      "photo_taken" : false,
      "source" : "datacentermap.com"
    }
  },{
    "type" : "Feature",
    "geometry" : {
      "type" : "Point",
      "coordinates" : [6.155852, 51.369424]
    },
    "properties" : {
      "name" : ["Systemec Datacenter DC19"],
      "address" : {
        "street" : "Marinus Dammeweg 19",
        "zipcode" :  "5928 PW",
        "city" :  "Venlo"
      },
      "owner" : ["Systemec"],
      "amsix" : false,
      "photo_taken" : false,
      "source" : "datacentermap.com"
    }
  },{
    "type" : "Feature",
    "geometry" : {
      "type" : "Point",
      "coordinates" : [6.158818, 51.378376]
    },
    "properties" : {
      "name" : ["Systemec Datacenter DC25"],
      "address" : {
        "street" : "Marinus Dammeweg 25",
        "zipcode" :  "5928 PW",
        "city" :  "Venlo"
      },
      "owner" : ["Systemec"],
      "amsix" : false,
      "photo_taken" : false,
      "source" : "datacentermap.com"
    }
  },{
    "type" : "Feature",
    "geometry" : {
      "type" : "Point",
      "coordinates" : [6.159216, 51.378373]
    },
    "properties" : {
      "name" : ["Interconnect 's-Hertogenbosch"],
      "address" : {
        "street" : "De Steenbok 1",
        "zipcode" :   "5215 MG",
        "city" :  "'s-Hertogenbosch"
      },
      "owner" : ["Interconnect"],
      "amsix" : false,
      "photo_taken" : false,
      "source" : "datacentermap.com"
    }
  },{
    "type" : "Feature",
    "geometry" : {
      "type" : "Point",
      "coordinates" : [5.358767, 51.686561]
    },
    "properties" : {
      "name" : ["Greenhouse Datacenter"],
      "address" : {
        "street" : "Industriestraat 24",
        "zipcode" :  "2671 CT",
        "city" :  "Naaldwijk"
      },
      "owner" : ["Greenhouse Datacenters B.V."],
      "amsix" : false,
      "photo_taken" : true,
      "source" : "datacentermap.com"
    }
  },{
    "type" : "Feature",
    "geometry" : {
      "type" : "Point",
      "coordinates" : [4.210829, 52.001194]
    },
    "properties" : {
      "name" : ["ECO2DC"],
      "address" : {
        "street" :  "",
        "zipcode"  :  "",
        "city" :  "Steenwijk"
      },
      "owner" : ["ECO2DC"],
      "amsix" : false,
      "photo_taken" : false,
      "source" :"datacentermap.com"
    }
  },{
    "type" : "Feature",
    "geometry" : {
      "type" : "Point",
      "coordinates" : [4.305055, 51.587535]
    },
    "properties" : {
      "name" : ["Nedzone"],
      "address" : {
        "street" : "Drukkerij 6",
        "zipcode" :  "4651 SL",
        "city" :  "Steenbergen"
      },
      "owner" : ["Nedzone"],
      "amsix" : false,
      "photo_taken" : false,
      "source" : "datacentermap.com"
    }
  },{
    "type" : "Feature",
    "geometry" : {
      "type" : "Point",
      "coordinates" : [6.524801, 53.247481]
    },
    "properties" : {
      "name" : ["Bytesnet Datacenter d'Root"],
      "address" : {
        "street" : "De Bunders 1",
        "zipcode" :  "9747 AB",
        "city" :  "Groningen"
      },
      "owner" : ["Bytesnet"],
      "amsix" : false,
      "photo_taken" : false,
      "source" : "datacentermap.com"
    }
  },{
    "type" : "Feature",
    "geometry" : {
      "type" : "Point",
      "coordinates" : [6.52852, 53.246048]
    },
    "properties" : {
      "name" : ["TCN Data Hotel Groningen"],
      "address" : {
        "street" : "Zernikelaan 16",
        "zipcode" :  "9747 AA",
        "city" :  "Groningen"
      },
      "owner" : ["Bytesnet"],
      "amsix" : false,
      "photo_taken" : false,
      "source" : "datacentermap.com"
    }
  },{
    "type" : "Feature",
    "geometry" : {
      "type" : "Point",
      "coordinates" : [6.473715, 53.207462]
    },
    "properties" : {
      "name" : ["KPN Datacenter Groningen"],
      "address" : {
        "street" : "Liverpoolweg 10",
        "zipcode" :  "9744 TW",
        "city" :  "Groningen"
      },
      "owner" : ["Koninklijke KPN N.V"],
      "amsix" : false,
      "photo_taken" : false,
      "source" : "datacentermap.com"
    }
  },{
    "type" : "Feature",
    "geometry" : {
      "type" : "Point",
      "coordinates" : [6.585869, 53.209328]
    },
    "properties" : {
      "name" : ["Bardeen Datahotel"],
      "address" : {
        "street" : "Winschoterdiep 50",
        "zipcode" :  "9723 AB",
        "city" :  "Groningen"
      },
      "owner" : ["Bardeen"],
      "amsix" : false,
      "photo_taken" : false,
      "source" : "datacentermap.com"
    }
  },{
    "type" : "Feature",
    "geometry" : {
      "type" : "Point",
      "coordinates" : [6.536007, 53.238051]
    },
    "properties" : {
      "name" : ["Rekenhal"],
      "address" : {
        "street" : "Nettelbosje 1",
        "zipcode" :  "9747 AJ",
        "city" :  "Groningen"
      },
      "owner" : ["Rekencentrum Rijksuniversiteit Groningen"],
      "amsix" : false,
      "photo_taken" : false,
      "source" : "datacentermap.com"
    }
  },{
    "type" : "Feature",
    "geometry" : {
      "type" : "Point",
      "coordinates" : [6.536007, 53.238051]
    },
    "properties" : {
      "name" : ["Zernikeborg"],
      "address" : {
        "street" : "Nettelbosje 1",
        "zipcode" :  "9747 AJ",
        "city" :  "Groningen"
      },
      "owner" : ["Rekencentrum Rijksuniversiteit Groningen"],
      "amsix" : false,
      "photo_taken" : false,
      "source" : "datacentermap.com"
    }
  },{
    "type" : "Feature",
    "geometry" : {
      "type" : "Point",
      "coordinates" : [6.858136, 53.437458]
    },
    "properties" : {
      "name" : ["Data Hotel Eemshaven"],
      "address" : {
        "street" : "Huibertgatweg 2",
        "zipcode" :  "9979 XZ",
        "city" :  "Eemshaven"
      },
      "owner" : ["TCN"],
      "amsix" : false,
      "photo_taken" : false,
      "source" : "datacentermap.com"
    }
  },{
    "type" : "Feature",
    "geometry" : {
      "type" : "Point",
      "coordinates" : [6.85871, 53.4243]
    },
    "properties" : {
      "name" : ["Google Datacenter"],
      "address" : {
        "street" : "Oostpolder 4",
        "zipcode" :  "9979 XT",
        "city" :  "Eemshaven"
      },
      "owner" : ["Google"],
      "amsix" : false,
      "photo_taken" : false,
      "source" : "datacentermap.com"
    }
  },{
    "type" : "Feature",
    "geometry" : {
      "type" : "Point",
      "coordinates" : [6.864552, 53.165015]
    },
    "properties" : {
      "name" : ["Datacenter Groningen B.V."],
      "address" : {
        "street" : "Beneluxweg 4",
        "zipcode" :  "9636 HV",
        "city" :  "Zuidbroek"
      },
      "owner" : ["Datacenter Groningen B.V."],
      "amsix" : false,
      "photo_taken" : false,
      "source" : "datacentermap.com"
    }
  },{
    "type" : "Feature",
    "geometry" : {
      "type" : "Point",
      "coordinates" : [4.7022, 52.689822]
    },
    "properties" : {
      "name" : ["Essent Kabelcom"],
      "address" : {
        "zipcode"  :  "",
        "street" :  "",
        "city" :  "Aagtdorp"
      },
      "owner" : ["Essent"],
      "amsix" : false,
      "photo_taken" : false,
      "source" :"datacentermap.com"
    }
  },{
    "type" : "Feature",
    "geometry" : {
      "type" : "Point",
      "coordinates" : [5.169098, 52.034989]
    },
    "properties" : {
      "name" : ["ITDev Solutions"],
      "address" : {
        "zipcode": "3995DJ",
        "street": "Het rond 30",
        "city": "Houten"
      },
      "owner" : ["ITDev Solutions"],
      "amsix" : false,
      "photo_taken" : false,
      "source" : "datacentermap.com"
    }
  },{
    "type" : "Feature",
    "geometry" : {
      "type" : "Point",
      "coordinates" : [6.579846, 52.989181]
    },
    "properties" : {
      "name" : ["Morphlix"],
      "address" : {
        "street" : "Brunelstraat 4",
        "zipcode" :  "9404 KD",
        "city" :  "Assen"
      },
      "owner" : ["Morphlix"],
      "amsix" : false,
      "photo_taken" : false,
      "source" : "datacentermap.com"
    }
  },{
    "type" : "Feature",
    "geometry" : {
      "type" : "Point",
      "coordinates" : [5.049367, 51.56316]
    },
    "properties" : {
      "name" : ["NBrIX"],
      "address" : {
        "street" : "Professor Verbernelaan 35",
        "zipcode" :  "5037 AD",
        "city" :  "Tilburg"
      },
      "owner" : ["NBrIX"],
      "amsix" : false,
      "photo_taken" : false,
      "source" : "datacentermap.com"
    }
  },{
    "type" : "Feature",
    "geometry" : {
      "type" : "Point",
      "coordinates" : [4.81607, 51.823334]
    },
    "properties" : {
      "name" : ["Nedcomp"],
      "address" : {
        "street" : "Ambachtstraat 1c-d 3371XA",
        "zipcode" :  "Hardinxve ld",
        "city" :  "Giessendam"
      },
      "owner" : ["Nedcomp"],
      "amsix" : false,
      "photo_taken" : false,
      "source" : "datacentermap.com"
    }
  },{
    "type" : "Feature",
    "geometry" : {
      "type" : "Point",
      "coordinates" : [6.027836, 50.892065]
    },
    "properties" : {
      "name" : ["Open Line Landgraaf"],
      "address" : {
        "street" : "Minckelersstraat 2",
        "zipcode" :  "6372 PP",
        "city" :  "Landgraaf"
      },
      "owner" : ["Open Line Landgraaf"],
      "amsix" : false,
      "photo_taken" : false,
      "source" : "datacentermap.com"
    }
  },{
    "type" : "Feature",
    "geometry" : {
      "type" : "Point",
      "coordinates" : [5.183921, 51.694424]
    },
    "properties" : {
      "name" : ["Pelu Datacenter"],
      "address" : {
        "street" : "Middelweg 43",
        "zipcode" :  "525 3E",
        "city" :  "Nieuwkuijk"
      },
      "owner" : ["Pelu Datacenter"],
      "amsix" : false,
      "photo_taken" : false,
      "source" : "datacentermap.com"
    }
  },{
    "type" : "Feature",
    "geometry" : {
      "type" : "Point",
      "coordinates" : [5.558343, 53.18219]
    },
    "properties" : {
      "name" : ["PowerXS Telecom DC Franeker"],
      "address" : {
        "street" : "Oostelijke Industrieweg 4B",
        "zipcode" :  "8801 JW",
        "city" :  "Franeker"
      },
      "owner" : ["PowerXS Telecom"],
      "amsix" : false,
      "photo_taken" : false,
      "source" : "datacentermap.com"
    }
  },{
    "type" : "Feature",
    "geometry" : {
      "type" : "Point",
      "coordinates" : [6.201482, 52.714714]
    },
    "properties" : {
      "name" : ["Serverius SDC2", "Serverius IT Infrastructure"],
      "address" : {
        "street" : "Ketelskamp 10",
        "zipcode" :  "7942 KG",
        "city" :  "Meppel"
      },
      "owner" : ["Serverius IT Infrastructure"],
      "amsix" : false,
      "photo_taken" : true,
      "source" : "datacentermap.com"
    }
  },{
    "type" : "Feature",
    "geometry" : {
      "type" : "Point",
      "coordinates" : [6.734056, 52.656025]
    },
    "properties" : {
      "name" : ["I-DATACENTER"],
      "address" : {
        "street" : "Monierweg 9",
        "zipcode" :  "7741 KV",
        "city" :  "Coevorden"
      },
      "owner" : ["I-DATACENTER"],
      "amsix" : false,
      "photo_taken" : false,
      "source" : "datacentermap.com"
    }
  },{
    "type" : "Feature",
    "geometry" : {
      "type" : "Point",
      "coordinates" : [6.754949, 52.658351]
    },
    "properties" : {
      "name" : ["Muller Networks"],
      "address" : {
        "street" : "Europaweg 2",
        "zipcode" :  "7742 PN",
        "city" :  "Coevorden"
      },
      "owner" : ["Muller Networks"],
      "amsix" : false,
      "photo_taken" : false,
      "source" : "datacentermap.com"
    }
  },{
    "type" : "Feature",
    "geometry" : {
      "type" : "Point",
      "coordinates" : [5.875016, 50.938069]
    },
    "properties" : {
      "name" : ["Emango Datacenter"],
      "address" : {
        "street" : "Breinder 24",
        "zipcode" :  "6365 CX",
        "city" :  "Schinnen"
      },
      "owner" : ["Emango Internet Services BV"],
      "amsix" : false,
      "photo_taken" : false,
      "source" : "datacentermap.com"
    }
  },{
    "type" : "Feature",
    "geometry" : {
      "type" : "Point",
      "coordinates" : [5.971308, 50.892319]
    },
    "properties" : {
      "name" : ["SmartDC Heerlen"],
      "address" : {
        "street" : "Kloosterweg 1",
        "zipcode" :  "6412 CN",
        "city" :  "Heerlen"
      },
      "owner" : ["SmartDC"],
      "amsix" : false,
      "photo_taken" : false,
      "source" : "datacentermap.com"
    }
  },{
    "type" : "Feature",
    "geometry" : {
      "type" : "Point",
      "coordinates" : [5.164383, 52.242621]
    },
    "properties" : {
      "name" : ["Alticom Datacenter Hilversum"],
      "address" : {
        "street" : "Witte Kruislaan 47-A",
        "zipcode" :  "1217 AM",
        "city" :  "Hilversum"
      },
      "owner" : ["Alticom", "Cellnex Telecom"],
      "amsix" : false,
      "photo_taken" : true,
      "source" : "datacentermap.com"
    }
  },{
    "type" : "Feature",
    "geometry" : {
      "type" : "Point",
      "coordinates" : [5.169137, 52.241273]
    },
    "properties" : {
      "name" : ["Media Gateway"],
      "address" : {
        "street" : "Koos Postemalaan 2",
        "zipcode" :  "1217 ZC",
        "city" :  "Hilversum"
      },
      "owner" : ["Red Bee Media BV"],
      "amsix" : false,
      "photo_taken" : false,
      "source" : "datacentermap.com"
    }
  },{
    "type" : "Feature",
    "geometry" : {
      "type" : "Point",
      "coordinates" : [4.796128, 52.497903]
    },
    "properties" : {
      "name" : ["Alticom Datacenter Wormer"],
      "address" : {
        "street" : "Eenhoornweg 1",
        "zipcode" :  "1531 ME",
        "city" :  "Wormer"
      },
      "owner" : ["Alticom", "Cellnex Telecom"],
      "amsix" : false,
      "photo_taken" : true,
      "source" : "datacentermap.com"
    }
  },{
    "type" : "Feature",
    "geometry" : {
      "type" : "Point",
      "coordinates" : [4.891153, 52.082813]
    },
    "properties" : {
      "name" : ["Switch Datacenters Woerden"],
      "address" : {
        "street" : "Polanerbaan 1-3",
        "zipcode" :  "3447 GN",
        "city" :  "Woerden"
      },
      "owner" : ["Switch"],
      "amsix" : false,
      "photo_taken" : false,
      "source" : "datacentermap.com"
    }
  },{
    "type" : "Feature",
    "geometry" : {
      "type" : "Point",
      "coordinates" : [5.556611, 52.040541]
    },
    "properties" : {
      "name" : ["Cloud Centre Claudia"],
      "address" : {
        "street" : "Plesmanstraat 51",
        "zipcode" :  "3905 KZ",
        "city" :  "Veenendaal"
      },
      "owner" : ["Cloud Centre Claudia"],
      "amsix" : false,
      "photo_taken" : false,
      "source" : "datacentermap.com"
    }
  },{
    "type" : "Feature",
    "geometry" : {
      "type" : "Point",
      "coordinates" : [6.403538, 52.902797]
    },
    "properties" : {
      "name" : ["CJ2 Datatoren"],
      "address" : {
        "street" : "Van Veenstraat 26",
        "zipcode" :  "9423 VB",
        "city" :  "Hoogersmilde"
      },
      "owner" : ["Alticom", "Cellnex Telecom"],
      "amsix" : false,
      "photo_taken" : true,
      "source" : "datacentermap.com"
    }
  },{
    "type" : "Feature",
    "geometry" : {
      "type" : "Point",
      "coordinates" : [5.104102, 52.018592]
    },
    "properties" : {
      "name" : ["BT DC Nieuwegein"],
      "address" : {
        "street" : "",
        "zipcode" :  "3433 PC",
        "city" :  "Nieuwegein"
      },
      "owner" : ["BT Netherlands"],
      "amsix" : false,
      "photo_taken" : false,
      "source" : "datacentermap.com"
    }
  },{
    "type" : "Feature",
    "geometry" : {
      "type" : "Point",
      "coordinates" : [5.437404, 52.522194]
    },
    "properties" : {
      "name" : ["Alticom Datacenter Lelystad"],
      "address" : {
        "street": "Oostvaardersdijk 1-3",
        "zipcode": "8244 PA",
        "city": "Lelystad"
      },
      "owner" : ["Alticom", "Cellnex Telecom"],
      "amsix" : false,
      "photo_taken" : true,
      "source" : "datacentermap.com"
    }
  },{
    "type" : "Feature",
    "geometry" : {
      "type" : "Point",
      "coordinates" : [5.765277, 53.20489]
    },
    "properties" : {
      "name" : ["DataCenter Fryslan 1"],
      "address" : {
        "street" : "FrancoisHaverSchmidtwei 3",
        "zipcode" :  "8914 BC",
        "city" :  "Leeuwarden"
      },
      "owner" : ["DataCenter Fryslan"],
      "amsix" : false,
      "photo_taken" : false,
      "source" : "datacentermap.com"
    }
  },{
    "type" : "Feature",
    "geometry" : {
      "type" : "Point",
      "coordinates" : [5.765277, 53.20489]
    },
    "properties" : {
      "name" : ["DataCenter Fryslan 1"],
      "address" : {
        "street" : "DataCenter Fryslan 2",
        "zipcode" :  "8912 AK",
        "city" :  "Leeuwarden"
      },
      "owner" : ["DataCenter Fryslan"],
      "amsix" : false,
      "photo_taken" : false,
      "source" : "datacentermap.com"
    }
  },{
    "type" : "Feature",
    "geometry" : {
      "type" : "Point",
      "coordinates" : [5.698838, 52.909108]
    },
    "properties" : {
      "name" : ["ViaData Toren", "Alticom Datacenter"],
      "address" : {
        "street" : "Gaestdyk 3",
        "zipcode" :  "8522 MV",
        "city" :  "Tjerkgaast"
      },
      "owner" : ["Alticom", "Cellnex Telecom"],
      "amsix" : false,
      "photo_taken" : true,
      "source" : "datacentermap.com"
    }
  },{
    "type" : "Feature",
    "geometry" : {
      "type" : "Point",
      "coordinates" : [5.845431, 50.995908]
    },
    "properties" : {
      "name" : ["Unilogic Networks"],
      "address" : {
        "street" : "Bergerweg 120",
        "zipcode" :  "6135 KD",
        "city" :  "Sittard"
      },
      "owner" : ["Unilogic"],
      "amsix" : false,
      "photo_taken" : false,
      "source" : "datacentermap.com"
    }
  },{
    "type" : "Feature",
    "geometry" : {
      "type" : "Point",
      "coordinates" : [5.781152, 50.928065]
    },
    "properties" : {
      "name" : ["Cofely Datacenter Maastricht-Airport"],
      "address" : {
        "street" : "Amerikalaan 35",
        "zipcode" :  "6199 AE",
        "city" :  "Maastricht"
      },
      "owner" : ["Cofely GDF SUEZ"],
      "amsix" : false,
      "photo_taken" : false,
      "source" : "datacentermap.com"
    }
  },{
    "type" : "Feature",
    "geometry" : {
      "type" : "Point",
      "coordinates" : [5.899454, 52.16569]
    },
    "properties" : {
      "name" : ["Alticom Datacenter Ugchelen"],
      "address" : {
        "street" : "Otterloseweg 110",
        "zipcode" :  "7339 GZ",
        "city" :  "Ugchelen"
      },
      "owner" : ["Alticom", "Cellnex Telecom"],
      "amsix" : false,
      "photo_taken" : false,
      "source" : "datacentermap.com"
    }
  },{
    "type" : "Feature",
    "geometry" : {
      "type" : "Point",
      "coordinates" : [5.926008, 50.832007]
    },
    "properties" : {
      "name" : ["Datacenter Eys"],
      "address" : {
        "street" : "Eyserbosweg 27",
        "zipcode" :  "6287 NE",
        "city" :  "Eys"
      },
      "owner" : ["Alticom", "Cellnex Telecom"],
      "amsix" : false,
      "photo_taken" : false,
      "source" : "datacentermap.com"
    }
  },{
    "type" : "Feature",
    "geometry" : {
      "type" : "Point",
      "coordinates" : [5.835225, 51.177003]
    },
    "properties" : {
      "name" : ["Datacenter Ittervoort"],
      "address" : {
        "street" : "Branskamp 16",
        "zipcode" :  "6014 CB",
        "city" :  "Ittervoort"
      },
      "owner" : ["Alticom", "Cellnex Telecom"],
      "amsix" : false,
      "photo_taken" : false,
      "source" : "datacentermap.com"
    }
  },{
    "type" : "Feature",
    "geometry" : {
      "type" : "Point",
      "coordinates" : [5.659369, 50.840286]
    },
    "properties" : {
      "name" : ["Datacenter Maastricht"],
      "address" : {
        "street" : "Trichterbaan 170",
        "zipcode" :  "6215 XZ",
        "city" :  "Maastricht"
      },
      "owner" : ["Alticom", "Cellnex Telecom"],
      "amsix" : false,
      "photo_taken" : false,
      "source" : "datacentermap.com"
    }
  },{
    "type" : "Feature",
    "geometry" : {
      "type" : "Point",
      "coordinates" : [5.709744, 50.864064]
    },
    "properties" : {
      "name" : ["EKC Limmel"],
      "address" : {
        "street" : "Populierweg 150",
        "zipcode" :  "6222 CT",
        "city" :  "Maastricht"
      },
      "owner" : ["EKC Limmel"],
      "amsix" : false,
      "photo_taken" : false,
      "source" : "datacentermap.com"
    }
  },{
    "type" : "Feature",
    "geometry" : {
      "type" : "Point",
      "coordinates" : [5.976115, 51.183717]
    },
    "properties" : {
      "name" : ["Datacenter Roermond"],
      "address" : {
        "street" : "Op de Meuleberg 7",
        "zipcode" :  "6041 NK",
        "city" :  "Roermond"
      },
      "owner" : ["Alticom", "Cellnex Telecom"],
      "amsix" : false,
      "photo_taken" : false,
      "source" : "datacentermap.com"
    }
  },{
    "type" : "Feature",
    "geometry" : {
      "type" : "Point",
      "coordinates" : [5.987772, 51.19132]
    },
    "properties" : {
      "name" : ["Datacenter Zuid BV"],
      "address" : {
        "street" : "Postbus 1005",
        "zipcode" :  "6040 KA",
        "city" :  "Roermond"
      },
      "owner" : ["Datacenter Zuid BV"],
      "amsix" : false,
      "photo_taken" : false,
      "source" : "datacentermap.com"
    }
  },{
    "type" : "Feature",
    "geometry" : {
      "type" : "Point",
      "coordinates" : [6.01987, 51.193267]
    },
    "properties" : {
      "name" : ["ENNE Solutions"],
      "address" : {
        "street" : "Westhoven 6",
        "zipcode" :  "6042 NV",
        "city" :  "Roermond"
      },
      "owner" : ["ENNE Solutions"],
      "amsix" : false,
      "photo_taken" : false,
      "source" : "datacentermap.com"
    }
  },{
    "type" : "Feature",
    "geometry" : {
      "type" : "Point",
      "coordinates" : [5.704135, 51.526324]
    },
    "properties" : {
      "name" : ["Datacenter Gemert"],
      "address" : {
        "street" : "Hemelsbleekweg 15",
        "zipcode" :  "5425 PB",
        "city" :  "De Mortel"
      },
      "owner" : ["Alticom", "Cellnex Telecom"],
      "amsix" : false,
      "photo_taken" : false,
      "source" : "datacentermap.com"
    }
  },{
    "type" : "Feature",
    "geometry" : {
      "type" : "Point",
      "coordinates" : [6.622166, 52.567534]
    },
    "properties" : {
      "name" : ["Ecostora HDB01"],
      "address" : {
        "street" : "Bruchterweg 88",
        "zipcode" :  "7772 BJ",
        "city" :  "Hardenberg"
      },
      "owner" : ["Ecostora"],
      "amsix" : false,
      "photo_taken" : false,
      "source" : "datacentermap.com"
    }
  },{
    "type" : "Feature",
    "geometry" : {
      "type" : "Point",
      "coordinates" : [5.075431, 51.607268]
    },
    "properties" : {
      "name" : ["Datacenter Loon op Zand"],
      "address" : {
        "street" : "Finantiën 5",
        "zipcode" :  "5175 NW",
        "city" :  "Loon op Zand"
      },
      "owner" : ["Alticom", "Cellnex Telecom"],
      "amsix" : false,
      "photo_taken" : true,
      "source" : "datacentermap.com"
    }
  },{
    "type" : "Feature",
    "geometry" : {
      "type" : "Point",
      "coordinates" : [5.594093, 51.809323]
    },
    "properties" : {
      "name" : ["Datacenter Megen"],
      "address" : {
        "street" : "Ravensteinsedijk 2-A",
        "zipcode" :  "5368 LB",
        "city" :  "Megen"
      },
      "owner" : ["Alticom", "Cellnex Telecom"],
      "amsix" : false,
      "photo_taken" : false,
      "source" : "datacentermap.com"
    }
  },{
    "type" : "Feature",
    "geometry" : {
      "type" : "Point",
      "coordinates" : [5.604801, 51.437986]
    },
    "properties" : {
      "name" : ["Datacenter Mierlo"],
      "address" : {
        "street" : "Torenweg 1",
        "zipcode" :  "5731 CJ",
        "city" :  "Mierlo"
      },
      "owner" : ["Alticom", "Cellnex Telecom"],
      "amsix" : false,
      "photo_taken" : false,
      "source" : "datacentermap.com"
    }
  },{
    "type" : "Feature",
    "geometry" : {
      "type" : "Point",
      "coordinates" : [4.461151, 51.523057]
    },
    "properties" : {
      "name" : ["Alticom Datacenter Roosendaal"],
      "address" : {
        "street" : "Melis Stokelaan 25",
        "zipcode" :  "4707 HP",
        "city" :  "Roosendaal"
      },
      "owner" : ["Alticom", "Cellnex Telecom"],
      "amsix" : false,
      "photo_taken" : true,
      "source" : "datacentermap.com"
    }
  },{
    "type" : "Feature",
    "geometry" : {
      "type" : "Point",
      "coordinates" : [6.441662, 52.2369]
    },
    "properties" : {
      "name" : ["Datacenter Markelo"],
      "address" : {
        "street" : "Larenseweg 58",
        "zipcode" :  "7475 PX",
        "city" :  "Markelo"
      },
      "owner" : ["Alticom", "Cellnex Telecom"],
      "amsix" : false,
      "photo_taken" : false,
      "source" : "datacentermap.com"
    }
  },{
    "type" : "Feature",
    "geometry" : {
      "type" : "Point",
      "coordinates" : [6.139619, 52.533618]
    },
    "properties" : {
      "name" : ["Alticom Datacenter Zwolle"],
      "address" : {
        "street" : "Bergkloosterweg 621",
        "zipcode" :  "8034 PP",
        "city" :  "Zwolle"
      },
      "owner" : ["Alticom", "Cellnex Telecom"],
      "amsix" : false,
      "photo_taken" : true,
      "source" : "datacentermap.com"
    }
  },{
    "type" : "Feature",
    "geometry" : {
      "type" : "Point",
      "coordinates" : [6.142599, 52.488394]
    },
    "properties" : {
      "name" : ["ZW1 Zwolle IBX® Data Center"],
      "address" : {
        "street" : "Telfordstraat 3",
        "zipcode" :  "8013 RL",
        "city" :  "Zwolle"
      },
      "owner" : ["Equinix"],
      "amsix" : false,
      "photo_taken" : true,
      "source" : "datacentermap.com"
    }
  },{
    "type" : "Feature",
    "geometry" : {
      "type" : "Point",
      "coordinates" : [6.767381, 52.284928]
    },
    "properties" : {
      "name" : ["PCD1"],
      "address" : {
        "street" : "Expolaan 50",
        "zipcode" :  "7556 BE",
        "city" :  "Hengelo"
      },
      "owner" : ["Previder"],
      "amsix" : false,
      "photo_taken" : false,
      "source" : "datacentermap.com"
    }
  },{
    "type" : "Feature",
    "geometry" : {
      "type" : "Point",
      "coordinates" : [6.767264, 52.243834]
    },
    "properties" : {
      "name" : ["PCD2"],
      "address" : {
        "street" : "Barnsteenstraat 15",
        "zipcode" :  "7554 TC",
        "city" :  "Hengelo"
      },
      "owner" : ["Previder"],
      "amsix" : false,
      "photo_taken" : false,
      "source" : "datacentermap.com"
    }
  },{
    "type" : "Feature",
    "geometry" : {
      "type" : "Point",
      "coordinates" : [6.849658, 52.237001]
    },
    "properties" : {
      "name" : ["Datacenter Enschede"],
      "address" : {
        "street" : "Auke Vleerstraat 1",
        "zipcode" :  "7521 PE",
        "city" :  "Enschede"
      },
      "owner" : ["Equinix"],
      "amsix" : false,
      "photo_taken" : false,
      "source" : "datacentermap.com"
    }
  },{
    "type" : "Feature",
    "geometry" : {
      "type" : "Point",
      "coordinates" : [6.820988, 52.216301]
    },
    "properties" : {
      "name" : ["DataCentrum Twente"],
      "address" : {
        "street" : "Marssteden 110",
        "zipcode" :  "7547 TD",
        "city" :  "Enschede"
      },
      "owner" : ["DataCentrum Twente"],
      "amsix" : false,
      "photo_taken" : false,
      "source" : "datacentermap.com"
    }
  },{
    "type" : "Feature",
    "geometry" : {
      "type" : "Point",
      "coordinates" : [6.864338, 52.2203]
    },
    "properties" : {
      "name" : ["InterDC"],
      "address" : {
        "street" : "Josinkstraat 30",
        "zipcode" :  "7547 AB",
        "city" :  "Enschede"
      },
      "owner" : ["InterDC"],
      "amsix" : false,
      "photo_taken" : false,
      "source" : "datacentermap.com"
    }
  },{
    "type" : "Feature",
    "geometry" : {
      "type" : "Point",
      "coordinates" : [5.050569, 52.002407]
    },
    "properties" : {
      "name" : ["Zendmast Lopik","Alticom Datacenter Ijsselstein", "Gerbrandytoren"],
      "address" : {
        "street" : "Hogebiezendijk 21",
        "zipcode" :  "3401 RS",
        "city" :  "IJsselstein"
      },
      "owner" : ["Alticom", "Cellnex Telecom"],
      "amsix" : false,
      "photo_taken" : true,
      "source" : "datacentermap.com"
    }
  },{
    "type" : "Feature",
    "geometry" : {
      "type" : "Point",
      "coordinates" : [3.884479, 51.510823]
    },
    "properties" : {
      "name" : ["Alticom", "Datacenter Goes"],
      "address" : {
        "street" : "Cornelisweg 10",
        "zipcode" :  "4463 AK",
        "city" :  "Goes"
      },
      "owner" : ["Alticom", "Cellnex Telecom"],
      "amsix" : false,
      "photo_taken" : true,
      "source" : "datacentermap.com"
    }
  },{
    "type" : "Feature",
    "geometry" : {
      "type" : "Point",
      "coordinates" : [3.885993, 51.491941]
    },
    "properties" : {
      "name" : ["ZeelandNet Zakelijk"],
      "address" : {
        "street" : "Jenny Wijermanweg 24",
        "zipcode" :  "4462 GB",
        "city" :  "Goes"
      },
      "owner" : ["ZeelandNet"],
      "amsix" : false,
      "photo_taken" : false,
      "source" : "datacentermap.com"
    }
  },{
    "type" : "Feature",
    "geometry" : {
      "type" : "Point",
      "coordinates" : [4.646499, 52.136933]
    },
    "properties" : {
      "name" : ["Datacenter Alphen aan den Rijn"],
      "address" : {
        "street" : "Energieweg 4",
        "zipcode" :  "2404 HE",
        "city" :  "Alphen aan den Rijn"
      },
      "owner" : ["Alticom", "Cellnex Telecom"],
      "amsix" : false,
      "photo_taken" : true,
      "source" : "datacentermap.com"
    }
  },{
    "type" : "Feature",
    "geometry" : {
      "type" : "Point",
      "coordinates" : [4.640164, 52.131092]
    },
    "properties" : {
      "name" : ["Alldatacenter BV"],
      "address" : {
        "street" : "Handelsweg 8",
        "zipcode" :  "2404 CD",
        "city" :  "Alphen aan den Rijn"
      },
      "owner" : ["Alldatacenter BV"],
      "amsix" : false,
      "photo_taken" : false,
      "source" : "datacentermap.com"
    }
  },{
    "type" : "Feature",
    "geometry" : {
      "type" : "Point",
      "coordinates" : [4.335857, 52.080714]
    },
    "properties" : {
      "name" : ["Datacenter Den Haag"],
      "address" : {
        "street" : "Louise Henriëttestraat 385",
        "zipcode" :  "2595 BK",
        "city" :  "Den Haag"
      },
      "owner" : ["Alticom", "Cellnex Telecom"],
      "amsix" : false,
      "photo_taken" : true,
      "source" : "datacentermap.com"
    }
  },{
    "type" : "Feature",
    "geometry" : {
      "type" : "Point",
      "coordinates" : [4.386809, 52.064513]
    },
    "properties" : {
      "name" : ["Data facilities Den Haag"],
      "address" : {
        "street" : "Moezel 5",
        "zipcode" :  "2491 CV",
        "city" :  "Den Haag"
      },
      "owner" : ["Data Facilities B.V."],
      "amsix" : false,
      "photo_taken" : false,
      "source" : "datacentermap.com"
    }
  },{
    "type" : "Feature",
    "geometry" : {
      "type" : "Point",
      "coordinates" : [4.679147, 51.845913]
    },
    "properties" : {
      "name" : ["Dataplace Rotterdam"],
      "address" : {
        "street" : "Van Coulsterweg 6",
        "zipcode" :  "2952 CB",
        "city" :  "Alblasserdam"
      },
      "owner" : ["Dataplace B.V."],
      "amsix" : false,
      "photo_taken" : true,
      "source" : "datacentermap.com"
    }
  },{
    "type" : "Feature",
    "geometry" : {
      "type" : "Point",
      "coordinates" : [4.664457, 51.858243]
    },
    "properties" : {
      "name" : ["Datapark Nederland"],
      "address" : {
        "street" : "Edisonweg 10-220",
        "zipcode" :  "2952 AD",
        "city" :  "Alblasserdam"
      },
      "owner" : ["Datapark Nederland"],
      "amsix" : false,
      "photo_taken" : false,
      "source" : "datacentermap.com"
    }
  },{
    "type" : "Feature",
    "geometry" : {
      "type" : "Point",
      "coordinates" : [5.143087, 52.122761]
    },
    "properties" : {
      "name" : ["Dataplace Utrecht"],
      "address" : {
        "street" : "Koningin Wilhelminaweg 471",
        "zipcode" :  "3737 BE",
        "city" :  "Groenekan"
      },
      "owner" : ["Dataplace B.V."],
      "amsix" : false,
      "photo_taken" : false,
      "source" : "datacentermap.com"
    }
  },{
    "type" : "Feature",
    "geometry" : {
      "type" : "Point",
      "coordinates" : [5.29572, 51.715909]
    },
    "properties" : {
      "name" : ["Blue Star"],
      "address" : {
        "street" : "Hambakenwetering 1",
        "zipcode" :  "5321 DD",
        "city" :  "Den Bosch"
      },
      "owner" : ["Blue Star"],
      "amsix" : false,
      "photo_taken" : false,
      "source" : "datacentermap.com"
    }
  },{
    "type" : "Feature",
    "geometry" : {
      "type" : "Point",
      "coordinates" : [5.07867, 52.069108]
    },
    "properties" : {
      "name" : ["RAM Infotechnology"],
      "address" : {
        "street" : "Ptolemaeuslaan 69",
        "zipcode" :  "3538 BR",
        "city" :  "Utrecht"
      },
      "owner" : ["RAM Infotechnology"],
      "amsix" : false,
      "photo_taken" : false,
      "source" : "datacentermap.com"
    }
  },{
    "type" : "Feature",
    "geometry" : {
      "type" : "Point",
      "coordinates" : [5.932863, 51.988021]
    },
    "properties" : {
      "name" : ["Dataplace Arnhem"],
      "address" : {
        "street" : "Tivolilaan 251",
        "zipcode" :  "6824 BV",
        "city" :  "Arnhem"
      },
      "owner" : ["Dataplace B.V."],
      "amsix" : false,
      "photo_taken" : false,
      "source" : "datacentermap.com"
    }
  },{
    "type" : "Feature",
    "geometry" : {
      "type" : "Point",
      "coordinates" : [5.183618, 51.698233]
    },
    "properties" : {
      "name" : ["Databalance Services B.V."],
      "address" : {
        "street" : "Hopbrouwer 18",
        "zipcode" :  "5253 RE",
        "city" :  "Nieuwkuijk"
      },
      "owner" : ["Databalance Services B.V."],
      "amsix" : false,
      "photo_taken" : false,
      "source" : "datacentermap.com"
    }
  },{
    "type" : "Feature",
    "geometry" : {
      "type" : "Point",
      "coordinates" : [5.820668, 50.962022]
    },
    "properties" : {
      "name" : ["Data Exchange Europe"],
      "address" : {
        "street" : "Hofstraat 2A",
        "zipcode" :  "6161 AR",
        "city" :  "Geleen"
      },
      "owner" : ["Data Exchange Europe"],
      "amsix" : false,
      "photo_taken" : false,
      "source" : "datacentermap.com"
    }
  },{
    "type" : "Feature",
    "geometry" : {
      "type" : "Point",
      "coordinates" : [5.038593, 51.69582]
    },
    "properties" : {
      "name" : ["Dataplace Brabant"],
      "address" : {
        "street" : "Gragtmansstraat 1B Industrieterrein Haven 7",
        "zipcode" :  "5145 RA",
        "city" :  "Waalwijk"
      },
      "owner" : ["Dataplace B.V."],
      "amsix" : false,
      "photo_taken" : false,
      "source" : "datacentermap.com"
    }
  },{
    "type" : "Feature",
    "geometry" : {
      "type" : "Point",
      "coordinates" : [4.301611, 51.855601]
    },
    "properties" : {
      "name" : ["Data Facilities Spijkenisse"],
      "address" : {
        "street" : "Boyleweg 2",
        "zipcode" :  "3208 KA",
        "city" :  "Spijkernisse"
      },
      "owner" : ["Data facilities"],
      "amsix" : false,
      "photo_taken" : false,
      "source" : "datacentermap.com"
    }
  },{
    "type" : "Feature",
    "geometry" : {
      "type" : "Point",
      "coordinates" : [4.741823, 52.27444]
    },
    "properties" : {
      "name" : ["Interxion AMS8"],
      "address" : {
        "street" : "Pudongweg 37",
        "zipcode" :  "1437 EM",
        "city" :  "Rozenburg"
      },
      "owner" : ["Interxion"],
      "amsix" : false,
      "photo_taken" : true,
      "source" : "datacentermap.com"
    }
  },{
    "type" : "Feature",
    "geometry" : {
      "type" : "Point",
      "coordinates" : [4.678661, 52.289965]
    },
    "properties" : {
      "name" : ["AMS 15 De President"],
      "address" : {
        "street" : "Jan Wijsmullerdreef 10",
        "zipcode" :  "2132 PW",
        "city" :  "Hoofddorp"
      },
      "owner" : ["Digital Realty"],
      "amsix" : false,
      "photo_taken" : true,
      "source" : "datacentermap.com"
    }
  },{
    "type" : "Feature",
    "geometry" : {
      "type" : "Point",
      "coordinates" : [5.39314, 52.197477]
    },
    "properties" : {
      "name" : ["Datahouse Amersfoort"],
      "address" : {
        "street" : "spaceshuttle 21",
        "zipcode" :  "3824 ML",
        "city" :  "Amersfoort"
      },
      "owner" : ["Datahouse Datacenters"],
      "amsix" : false,
      "photo_taken" : false,
      "source" : "datacentermap.com"
    }
  },{
    "type" : "Feature",
    "geometry" : {
      "type" : "Point",
      "coordinates" : [4.803156, 51.59289]
    },
    "properties" : {
      "name" : ["Concepts ICT"],
      "address" : {
        "street" : "St Ignatiusstraat 265",
        "zipcode" :  "4817 KK",
        "city" :  "Breda"
      },
      "owner" : ["Concepts ICT"],
      "amsix" : false,
      "photo_taken" : false,
      "source" : "datacentermap.com"
    }
  },{
    "type" : "Feature",
    "geometry" : {
      "type" : "Point",
      "coordinates" : [4.823378, 51.594931]
    },
    "properties" : {
      "name" : ["@Xit"],
      "address" : {
        "street" : "Takkebijsters 9b",
        "zipcode" :  "4817 BL",
        "city" :  "Breda"
      },
      "owner" : ["@Xit"],
      "amsix" : false,
      "photo_taken" : false,
      "source" : "datacentermap.com"
    }
  },{
    "type" : "Feature",
    "geometry" : {
      "type" : "Point",
      "coordinates" : [4.758859, 51.614189]
    },
    "properties" : {
      "name" : ["Zelybron DC Breda"],
      "address" : {
        "street" : "Schapendreef",
        "zipcode" :  "4824 AM",
        "city" :  "Breda"
      },
      "owner" : ["Zelybron DC"],
      "amsix" : false,
      "photo_taken" : false,
      "source" : "datacentermap.com"
    }
  },{
    "type" : "Feature",
    "geometry" : {
      "type" : "Point",
      "coordinates" : [4.929288, 51.579078]
    },
    "properties" : {
      "name" : ["Global-e Datacenter BV"],
      "address" : {
        "street" : "Haansbergseweg 12",
        "zipcode" :  "5121 LJ",
        "city" :  "Rijen"
      },
      "owner" : ["Global-e Datacenter BV"],
      "amsix" : false,
      "photo_taken" : false,
      "source" : "datacentermap.com"
    }
  },{
    "type" : "Feature",
    "geometry" : {
      "type" : "Point",
      "coordinates" : [4.772343, 52.943255]
    },
    "properties" : {
      "name" : ["Dataport"],
      "address" : {
        "street" : "Ravelijncenter 23",
        "zipcode" :  "1785 LX",
        "city" :  "Den Helder"
      },
      "owner" : ["Dataport"],
      "amsix" : false,
      "photo_taken" : false,
      "source" : "datacentermap.com"
    }
  },{
    "type" : "Feature",
    "geometry" : {
      "type" : "Point",
      "coordinates" : [5.620858, 51.477539]
    },
    "properties" : {
      "name" : ["e-Quest Datacenter"],
      "address" : {
        "street" : "Schootense Dreef 26",
        "zipcode" :  "5708 HZ",
        "city" :  "Helmond"
      },
      "owner" : ["e-Quest Datacenter"],
      "amsix" : false,
      "photo_taken" : false,
      "source" : "datacentermap.com"
    }
  },{
    "type" : "Feature",
    "geometry" : {
      "type" : "Point",
      "coordinates" : [5.257389, 51.801263]
    },
    "properties" : {
      "name" : ["DC Zaltbommel (DCZA)"],
      "address" : {
        "street" : "Hogeweg 3",
        "zipcode" :  "5301 LB",
        "city" :  "Zalt Bommel"
      },
      "owner" : ["DC Zaltbommel (DCZA)"],
      "amsix" : false,
      "photo_taken" : false,
      "source" : "datacentermap.com"
    }
  },{
    "type" : "Feature",
    "geometry" : {
      "type" : "Point",
      "coordinates" : [5.825214, 51.824519]
    },
    "properties" : {
      "name" : ["Digital Residence"],
      "address" : {
        "street" : "Jonkerbosplein 52",
        "zipcode" :  "6534 AB",
        "city" :  "Nijmegen"
      },
      "owner" : ["Digital Residence"],
      "amsix" : false,
      "photo_taken" : false,
      "source" : "datacentermap.com"
    }
  },{
    "type" : "Feature",
    "geometry" : {
      "type" : "Point",
      "coordinates" : [6.195004, 52.238602]
    },
    "properties" : {
      "name" : ["ITB2 Datacenter Deventer"],
      "address" : {
        "street" : "Herfordstraat 18",
        "zipcode" :  "7418 EX",
        "city" :  "Deventer"
      },
      "owner" : ["ITB2"],
      "amsix" : false,
      "photo_taken" : false,
      "source" : "datacentermap.com"
    }
  },{
    "type" : "Feature",
    "geometry" : {
      "type" : "Point",
      "coordinates" : [6.203004, 52.238553]
    },
    "properties" : {
      "name" : ["Green Data Systems"],
      "address" : {
        "street" : "Rigastraat 18",
        "zipcode" :  "7418 EW",
        "city" :  "Deventer"
      },
      "owner" : ["Green Data Systems"],
      "amsix" : false,
      "photo_taken" : false,
      "source" : "datacentermap.com"
    }
  },{
    "type" : "Feature",
    "geometry" : {
      "type" : "Point",
      "coordinates" : [6.203004, 52.238553]
    },
    "properties" : {
      "name" : ["1TransVir"],
      "address" : {
        "street" : "Rigastraat 18",
        "zipcode" :  "7418 EW",
        "city" :  "Deventer"
      },
      "owner" : ["1TransVir"],
      "amsix" : false,
      "photo_taken" : false,
      "source" : "datacentermap.com"
    }
  },{
    "type" : "Feature",
    "geometry" : {
      "type" : "Point",
      "coordinates" : [6.300252, 51.954184]
    },
    "properties" : {
      "name" : ["DataCentrum Doetinchem"],
      "address" : {
        "street" : "Gildenbroederslaan 1",
        "zipcode" :  "7005 BM",
        "city" :  "Doetinchem"
      },
      "owner" : ["NovoServe"],
      "amsix" : false,
      "photo_taken" : false,
      "source" : "datacentermap.com"
    }
  },{
    "type" : "Feature",
    "geometry" : {
      "type" : "Point",
      "coordinates" : [5.705215, 52.543666]
    },
    "properties" : {
      "name" : ["Serverius SDC1"],
      "address" : {
        "street" : "De Linge 26",
        "zipcode" :  "8253 PJ",
        "city" :  "Dronten"
      },
      "owner" : ["Serverius"],
      "amsix" : false,
      "photo_taken" : false,
      "source" : "datacentermap.com"
    }
  },{
    "type" : "Feature",
    "geometry" : {
      "type" : "Point",
      "coordinates" : [5.702179, 52.539145]
    },
    "properties" : {
      "name" : ["Solcon, locatie Dronten"],
      "address" : {
        "street" : "Het Spaarne 11",
        "zipcode" :  "8253 PE",
        "city" :  "Dronten"
      },
      "owner" : ["Solcon"],
      "amsix" : false,
      "photo_taken" : false,
      "source" : "datacentermap.com"
    }
  },{
    "type" : "Feature",
    "geometry" : {
      "type" : "Point",
      "coordinates" : [5.624974, 52.030762]
    },
    "properties" : {
      "name" : ["BIT-1"],
      "address" : {
        "street" : "Kelvinstraat 63-67",
        "zipcode" :  "6716 BV",
        "city" :  "Ede"
      },
      "owner" : ["BIT"],
      "amsix" : false,
      "photo_taken" : false,
      "source" : "datacentermap.com"
    }
  },{
    "type" : "Feature",
    "geometry" : {
      "type" : "Point",
      "coordinates" : [5.624266, 52.027428]
    },
    "properties" : {
      "name" : ["BIT-2A"],
      "address" : {
        "street" : "Galileïlaan 19",
        "zipcode" :  "6716 BP",
        "city" :  "Ede"
      },
      "owner" : ["BIT"],
      "amsix" : false,
      "photo_taken" : false,
      "source" : "datacentermap.com"
    }
  },{
    "type" : "Feature",
    "geometry" : {
      "type" : "Point",
      "coordinates" : [5.624266, 52.027428]
    },
    "properties" : {
      "name" : ["BIT-2B"],
      "address" : {
        "street" : "Galileïlaan 19",
        "zipcode" :  "6716 BP",
        "city" :  "Ede"
      },
      "owner" : ["BIT"],
      "amsix" : false,
      "photo_taken" : false,
      "source" : "datacentermap.com"
    }
  },{
    "type" : "Feature",
    "geometry" : {
      "type" : "Point",
      "coordinates" : [5.624266, 52.027428]
    },
    "properties" : {
      "name" : ["BIT-2C"],
      "address" : {
        "street" : "Galileïlaan 19",
        "zipcode" :  "6716 BP",
        "city" :  "Ede"
      },
      "owner" : ["BIT"],
      "amsix" : false,
      "photo_taken" : false,
      "source" : "datacentermap.com"
    }
  },{
    "type" : "Feature",
    "geometry" : {
      "type" : "Point",
      "coordinates" : [5.624266, 52.027428]
    },
    "properties" : {
      "name" : ["BIT-2D"],
      "address" : {
        "street" : "Galileïlaan 19",
        "zipcode" :  "6716 BP",
        "city" :  "Ede"
      },
      "owner" : ["BIT"],
      "amsix" : false,
      "photo_taken" : false,
      "source" : "datacentermap.com"
    }
  },{
    "type" : "Feature",
    "geometry" : {
      "type" : "Point",
      "coordinates" : [3.910038, 51.501483]
    },
    "properties" : {
      "name" : ["CyberBunker"],
      "address" : {
        "street" : "Zomerweg",
        "zipcode" :  "4481 CA",
        "city" :  "Kloetinge"
      },
      "owner" : ["CyberBunker"],
      "amsix" : false,
      "photo_taken" : false,
      "source" : "datacentermap.com"
    }
  },{
    "type" : "Feature",
    "geometry" : {
      "type" : "Point",
      "coordinates" : [4.496307, 52.033223]
    },
    "properties" : {
      "name" : ["ColoCenter"],
      "address" : {
        "street" : "Heliumstraat 200",
        "zipcode" :  "2718 RS",
        "city" :  "Zoetermeer"
      },
      "owner" : ["ColoCenter"],
      "amsix" : false,
      "photo_taken" : false,
      "source" : "datacentermap.com"
    }
  },{
    "type" : "Feature",
    "geometry" : {
      "type" : "Point",
      "coordinates" : [5.039590, 52.764930]
    },
    "properties" : {
      "name" : ["Microsoft North Amsterdam Data Center Campus"],
      "address" : {
        "street" : "Agriport 601",
        "zipcode" :  "1775 TK",
        "city" :  "Middenmeer"
      },
      "owner" : ["Microsoft"],
      "amsix" : false,
      "photo_taken" : false,
      "source" : "datacentermap.com"
    }
  },{
    "type" : "Feature",
    "geometry" : {
      "type" : "Point",
      "coordinates" : [0, 0]
    },
    "properties" : {
      "name" : ["Digital Realty Data Center"],
      "address" : {
        "street" : "Naritaweg 52",
        "zipcode" :  "1043 BZ",
        "city" :  "Amsterdam"
      },
      "owner" : ["Digital Realty"],
      "amsix" : false,
      "photo_taken" : true,
      "source" : "our own find"
    }
  }]
}